[
  { "name": "San Francisco", "lat": 37.7749, "lng": -122.4194 },
  { "name": "New York", "lat": 40.7128, "lng": -74.006 },
  { "name": "Chicago", "lat": 41.8781, "lng": -87.6298 },
  { "name": "Austin", "lat": 30.2672, "lng": -97.7431 },
  { "name": "Seattle", "lat": 47.6062, "lng": -122.3321 }
]
